[
  {
     "_id": "1",
     "owner":"1",
     "name":"Boston Commons Retreat",
     "type":"Apartment",
     "description":"This is a beautiful apartment located near the commons. It is a 2 bedroom apartment with a full kitchen and bathroom. It is available for weekly or monthly rentals.",
     "location":{
       "street":"120 Tremont Street",
       "city":"Boston",
       "state":"MA",
       "zipcode":"02108"
     },
     "beds": 2,
     "baths": 1,
     "square_feet": 1500,
     "amenities": [
       "WiFi",
       "Full Kitchen",
       "Washer & Dryer",
       "Free Parking",
       "Hot Tub"
     ],
     "rates": {
       "monthly":1100
     },
     "seller_info": {
       "name":"John Doe",
       "email":"john@gmail.com",
       "phone":"617-555-5555"
     },
     "images":[
       "/images/a1.jpg",
       "/images/a2.jpg"
     ],
     "is_featured": false,
     "createAt":"2024-01-01T00:00:00.000Z",
     "updateAt":"2024-01-01T00:00:00.000Z"
  },
  {
     "_id": "2",
     "owner":"1",
     "name":"Boston Commons Retreat",
     "type":"Apartment",
     "description":"This is a beautiful apartment located near the commons. It is a 2 bedroom apartment with a full kitchen and bathroom. It is available for weekly or monthly rentals.",
     "location":{
       "street":"120 Tremont Street",
       "city":"Boston",
       "state":"MA",
       "zipcode":"02108"
     },
     "beds": 2,
     "baths": 1,
     "square_feet": 1500,
     "amenities": [
       "WiFi",
       "Full Kitchen",
       "Washer & Dryer",
       "Free Parking",
       "Hot Tub"
     ],
     "rates": {
       "weekly":900
     },
     "seller_info": {
       "name":"John Doe",
       "email":"john@gmail.com",
       "phone":"617-555-5555"
     },
     "images":[
       "/images/a1.jpg",
       "/images/a2.jpg"
     ],
     "is_featured": false,
     "createAt":"2024-01-01T00:00:00.000Z",
     "updateAt":"2024-01-01T00:00:00.000Z"
  },
  {
     "_id": "3",
     "owner":"1",
     "name":"Boston Commons Retreat",
     "type":"Apartment",
     "description":"This is a beautiful apartment located near the commons. It is a 2 bedroom apartment with a full kitchen and bathroom. It is available for weekly or monthly rentals.",
     "location":{
       "street":"120 Tremont Street",
       "city":"Boston",
       "state":"MA",
       "zipcode":"02108"
     },
     "beds": 2,
     "baths": 1,
     "square_feet": 1500,
     "amenities": [
       "WiFi",
       "Full Kitchen",
       "Washer & Dryer",
       "Free Parking",
       "Hot Tub"
     ],
     "rates": {
       "nightly":200
     },
     "seller_info": {
       "name":"John Doe",
       "email":"john@gmail.com",
       "phone":"617-555-5555"
     },
     "images":[
       "/images/a1.jpg",
       "/images/a2.jpg"
     ],
     "is_featured": false,
     "createAt":"2024-01-01T00:00:00.000Z",
     "updateAt":"2024-01-01T00:00:00.000Z"
  },
  {
     "_id": "4",
     "owner":"1",
     "name":"Boston Commons Retreat",
     "type":"Apartment",
     "description":"This is a beautiful apartment located near the commons. It is a 2 bedroom apartment with a full kitchen and bathroom. It is available for weekly or monthly rentals.",
     "location":{
       "street":"120 Tremont Street",
       "city":"Boston",
       "state":"MA",
       "zipcode":"02108"
     },
     "beds": 2,
     "baths": 1,
     "square_feet": 1500,
     "amenities": [
       "WiFi",
       "Full Kitchen",
       "Washer & Dryer",
       "Free Parking",
       "Hot Tub"
     ],
     "rates": {
       "nightly":200
     },
     "seller_info": {
       "name":"John Doe",
       "email":"john@gmail.com",
       "phone":"617-555-5555"
     },
     "images":[
       "/images/a1.jpg",
       "/images/a2.jpg"
     ],
     "is_featured": false,
     "createAt":"2024-01-01T00:00:00.000Z",
     "updateAt":"2024-01-01T00:00:00.000Z"
  }
]